[
  {
    "name": "Snow scale – Oulanka Mäntykenttä",
    "latitude": 66.37166,
    "longitude": 29.31887,
    "description": "Snow monitoring station at Oulanka Mäntykenttä forest site.",
    "Measured_variable": "Snow Depth, Snow Water Equivalent",
    "Measurement_type": "online sensor data",
    "url": "",
    "contact": "snow-oulanka@domain.com"
  },
  {
    "name": "Snow scale – Pallas Kenttärova",
    "latitude": 67.98732,
    "longitude": 24.24386,
    "description": "Snow monitoring station at Pallas Kenttärova forest site.",
    "Measured_variable": "Snow Depth, Snow Water Equivalent",
    "Measurement_type": "online sensor data",
    "url": "",
    "contact": "snow-pallas@domain.com"
  },
  {
    "name": "SPA snow pack analyser – Oulanka Puukkosuo",
    "latitude": 66.37714,
    "longitude": 29.30844,
    "description": "Snow monitoring station at Oulanka Puukkosuo peatland site.",
    "Measured_variable": "Snow Water Equivalent, Snow Depth, Snow Density, Snow Liquid Water Content",
    "Measurement_type": "online sensor data",
    "url": "",
    "contact": "spa-oulanka@domain.com"
  },
  {
    "name": "DTS – Oulanka Research Station",
    "latitude": 66.37152,
    "longitude": 29.31904,
    "description": "Distributed temperature sensing for snow and air temperature.",
    "Measured_variable": "Snow Temperature, Air Temperature",
    "Measurement_type": "offline sensor data",
    "url": "",
    "contact": "dts-oulanka@domain.com"
  },
  {
    "name": "Picarro isotope analyser – Oulanka",
    "latitude": 66.37152,
    "longitude": 29.31904,
    "description": "Snow and air water vapor stable isotope measurements.",
    "Measured_variable": "Water quality",
    "Measurement_type": "offline sensor data",
    "url": "",
    "contact": "picarro@domain.com"
  },
  {
    "name": "GNSS-R snowpack – Oulanka Puukkosuo",
    "latitude": 66.37723,
    "longitude": 29.30826,
    "description": "GNSS-reflectometry based snowpack measurements.",
    "Measured_variable": "Snow Depth",
    "Measurement_type": "offline sensor data",
    "url": "",
    "contact": "gnss-oulanka@domain.com"
  },
  {
    "name": "GNSS-R snowpack – Pallas Lompolonjänkä",
    "latitude": 67.99726,
    "longitude": 24.20938,
    "description": "GNSS-reflectometry based snowpack measurements.",
    "Measured_variable": "Snow Depth",
    "Measurement_type": "offline sensor data",
    "url": "",
    "contact": "gnss-pallas@domain.com"
  },
  {
    "name": "GNSS-R lake ice – Kuivasjärvi",
    "latitude": 65.07002,
    "longitude": 25.47482,
    "description": "GNSS-reflectometry based lake ice thickness measurements.",
    "Measured_variable": "Ice Thickness, Water Level",
    "Measurement_type": "offline sensor data",
    "url": "",
    "contact": "lake-ice@domain.com"
  },
  {
    "name": "GNSS-R river ice – Kiiminkijoki",
    "latitude": 65.19378,
    "longitude": 25.41135,
    "description": "GNSS-reflectometry based river ice thickness measurements.",
    "Measured_variable": "Ice Thickness, Water Level",
    "Measurement_type": "offline sensor data",
    "url": "",
    "contact": "river-ice@domain.com"
  },
  {
    "name": "UAV survey (SfM) – Oulanka Puukkosuo",
    "latitude": 66.37786,
    "longitude": 29.30707,
    "description": "Structure-from-Motion UAV surveys.",
    "Measured_variable": "Snow Depth",
    "Measurement_type": "UAV survey",
    "url": "https://doi.org/10.23729/fd-15386b07-324e-3a47-86b1-e1a3a9845dba",
    "contact": "uav-oulanka@domain.com"
  },
  {
    "name": "UAV survey (LiDAR) – Pallas",
    "latitude": 67.99191,
    "longitude": 24.22537,
    "description": "LiDAR UAV snow line surveys.",
    "Measured_variable": "Snow Depth, Snow Water Equivalent",
    "Measurement_type": "UAV survey",
    "url": "https://doi.org/10.23729/fd-561771be-24b6-354b-bdd7-1b2bb6068308",
    "contact": "uav-pallas@domain.com"
  },
  {
    "name": "UAV survey (LiDAR) – Sodankylä",
    "latitude": 67.36601,
    "longitude": 26.63041,
    "description": "LiDAR UAV snow line surveys.",
    "Measured_variable": "Snow Depth, Snow Water Equivalent",
    "Measurement_type": "UAV survey",
    "url": "https://doi.org/10.23729/fd-561771be-24b6-354b-bdd7-1b2bb6068308",
    "contact": "uav-sodankyla@domain.com"
  },
  {
    "name": "Reindeer GPS collars",
    "latitude": null,
    "longitude": null,
    "description": "Reindeer GPS tracking collars.",
    "Measurement_type": "campaign",
    "url": "",
    "contact": "reindeer@domain.com"
  },
  {
    "name": "River ice cameras – Kiiminkijoki",
    "latitude": null,
    "longitude": null,
    "description": "River ice monitoring cameras.",
    "Measured_variable": "Ice Cover Presence",
    "Measurement_type": "campaign",
    "url": "",
    "contact": "ice-monitor@domain.com"
  },
  {
    "name": "River ice pressure sensors – Kiiminkijoki",
    "latitude": null,
    "longitude": null,
    "description": "River ice pressure and temperature sensors.",
    "Measured_variable": "Water Level, Water Temperature",
    "Measurement_type": "offline sensor data",
    "url": "",
    "contact": "pressure-sensor@domain.com"
  },
  {
    "name": "Snow & soil monitoring stations – Sodankylä region",
    "latitude": null,
    "longitude": null,
    "description": "Network of snow and soil monitoring stations.",
    "Measured_variable": "Snow Depth, Soil Water Content, Soil Temperature, Snow Temperature",
    "Measurement_type": "online sensor data",
    "url": "https://litdb.fmi.fi",
    "contact": "snow-soil@domain.com"
  },
  {
    "name": "Percostation – Salla",
    "latitude": 66.98964,
    "longitude": 28.099174,
    "description": "Unpaved road station monitoring soil, water and temperature.",
    "Measured_variable": "Soil Water Content, Soil Temperature, Water Quality",
    "Measurement_type": "online sensor data",
    "url": "",
    "contact": "perc-salla@domain.com"
  },
  {
    "name": "Percostation – Kolari",
    "latitude": 67.275151389,
    "longitude": 25.598625833,
    "description": "Unpaved road station monitoring soil, water and temperature.",
    "Measured_variable": "Soil Water Content, Soil Temperature, Water Quality",
    "Measurement_type": "online sensor data",
    "url": "",
    "contact": "perc-kolari@domain.com"
  },
  {
    "name": "Percostation – Rovaniemi",
    "latitude": 67.058251389,
    "longitude": 25.598625833,
    "description": "Unpaved road station monitoring soil, water and temperature.",
    "Measured_variable": "Soil Water Content, Soil Temperature, Water Quality",
    "Measurement_type": "online sensor data",
    "url": "",
    "contact": "perc-rovaniemi@domain.com"
  }
]
